{
   "us-east-1":
     {
       "name": "Virginia",
       "latitude": 38.13,
       "longitude": -78.45,
       "provider": "aws",
       "flag": "/images/logos/aws-svg.svg"
     },
     "us-east-2":
     {
       "name": "Ohio",
       "latitude": 39.96,
       "longitude": -83,
       "provider": "aws",
       "flag": "/images/logos/aws-svg.svg"
     },
     "us-west-1":
     {
       "name": "California",
       "latitude": 37.35,
       "longitude": -121.96,
       "provider": "aws",
       "flag": "/images/logos/aws-svg.svg"
     },
     "us-west-2":
     {
       "name": "Oregon",
       "latitude": 46.15,
       "longitude": -123.88,
       "provider": "aws",
       "flag": "/images/logos/aws-svg.svg"
     },
     "eu-west-1":
     {
       "name": "Ireland",
       "latitude": 53,
       "longitude": -8,
       "provider": "aws",
       "flag": "/images/logos/aws-svg.svg"
     },
     "eu-west-2":
     {
       "name": "London",
       "latitude": 51,
       "longitude": -0.1,
       "provider": "aws",
       "flag": "/images/logos/aws-svg.svg"
     },
     "eu-west-3":
     {
       "name": "Paris",
       "latitude": 48.86,
       "longitude": 2.35,
       "provider": "aws",
       "flag": "/images/logos/aws-svg.svg"
     },
     "eu-central-1":
     {
       "name": "Frankfurt",
       "latitude": 50,
       "longitude": 8,
       "provider": "aws",
       "flag": "/images/logos/aws-svg.svg"
     },
     "sa-east-1":
     {
       "name": "Sao Paulo",
       "latitude": -23.34,
       "longitude": -46.38,
       "provider": "aws",
       "flag": "/images/logos/aws-svg.svg"
     },
     "ap-southeast-1":
     {
       "name": "Singapore",
       "latitude": 1.37,
       "longitude": 103.8,
       "provider": "aws",
       "flag": "/images/logos/aws-svg.svg"
     },
     "ap-southeast-2":
     {
       "name": "Sydney",
       "latitude": -33.86,
       "longitude": 151.2,
       "provider": "aws",
       "flag": "/images/logos/aws-svg.svg"
     },
     "ap-northeast-1":
     {
       "name": "Tokyo",
       "latitude": 35.41,
       "longitude": 139.42,
       "provider": "aws",
       "flag": "/images/logos/aws-svg.svg"
     },
     "ap-northeast-2":
     {
       "name": "Seoul",
       "latitude": 37.56,
       "longitude": 126.98,
       "provider": "aws",
       "flag": "/images/logos/aws-svg.svg"
     },
     "ap-south-1":
     {
       "name": "Mumbai",
       "latitude": 19.08,
       "longitude": 72.88,
       "provider": "aws",
       "flag": "/images/logos/aws-svg.svg"
     },
     "ca-central-1":
     {
       "name": "Canada Central",
       "latitude": 45.5,
       "longitude": -73.6,
       "provider": "aws",
       "flag": "/images/logos/aws-svg.svg"
     },
     "eu-north-1":
     {
       "name": "Stockholm",
       "latitude": 59.25,
       "longitude": 17.81,
       "provider": "aws",
       "flag": "/images/logos/aws-svg.svg"
     },
     "eu-south-1":
     {
       "name": "Milan",
       "latitude": 45.43,
       "longitude": 9.29,
       "provider": "aws",
       "flag": "/images/logos/aws-svg.svg"
     },
     "ap-northeast-3":
     {
       "name": "Osaka",
       "latitude": 34.69,
       "longitude": 135.49,
       "provider": "aws",
       "flag": "/images/logos/aws-svg.svg"
     },
     "ap-east-1":
     {
       "name": "Hong Kong",
       "latitude": 22.27,
       "longitude": 114.16,
       "provider": "aws",
       "flag": "/images/logos/aws-svg.svg"
     },
     "me-south-1":
     {
       "name": "Bahrain",
       "latitude": 26.10,
       "longitude": 50.46,
       "provider": "aws",
       "flag": "/images/logos/aws-svg.svg"
     },
     "af-south":
     {
       "name": "South Africa",
       "latitude": -33.93,
       "longitude": 18.42,
       "provider": "aws",
       "flag": "/images/logos/aws-svg.svg"
     }
   }